[
  {
    "lng": "134.8222251",
    "lat": "34.81786331",
    "名称": "観音寺（志方城跡）",
    "読み仮名": "かんのんじ",
    "所在地": "志方町志方町720",
    "問合せ": "079-452-2370"
  },
  {
    "lng": "134.829567",
    "lat": "34.79504688",
    "名称": "常楽寺（神吉城跡）",
    "読み仮名": "じょうらくじ",
    "所在地": "東神吉町神吉1413",
    "問合せ": "079-432-3866"
  },
  {
    "lng": "134.8301251",
    "lat": "34.76879418",
    "名称": "称名寺（加古川城跡）",
    "読み仮名": "しょうみょうじ",
    "所在地": "加古川町本町313",
    "問合せ": "079-422-2262"
  },
  {
    "lng": "134.8558959",
    "lat": "34.75268384",
    "名称": "教信寺（野口城跡）",
    "読み仮名": "きょうしんじ",
    "所在地": "野口町野口465",
    "問合せ": "079-422-7189"
  },
  {
    "lng": "134.810015",
    "lat": "34.83100029",
    "名称": "長楽寺",
    "読み仮名": "ちょうらくじ",
    "所在地": "志方町永室853-1",
    "問合せ": "079-452-2530"
  },
  {
    "lng": "134.9143283",
    "lat": "34.8074527",
    "名称": "日光山常楽寺",
    "読み仮名": "にっこうさんじょうらくじ",
    "所在地": "上荘町井ノ口158",
    "問合せ": "079-428-2207"
  },
  {
    "lng": "134.842389",
    "lat": "34.83232314",
    "名称": "安楽寺",
    "読み仮名": "あんらくじ",
    "所在地": "志方町細工所631",
    "問合せ": "079-452-0328"
  },
  {
    "lng": "134.8335229",
    "lat": "34.75219849",
    "名称": "鶴林寺",
    "読み仮名": "かくりんじ",
    "所在地": "加古川町北在家424",
    "問合せ": "079-454-7053"
  },
  {
    "lng": "134.8470532",
    "lat": "34.82305662",
    "名称": "円照寺",
    "読み仮名": "えんしょうじ",
    "所在地": "志方町広尾1029",
    "問合せ": "079-452-2067"
  },
  {
    "lng": "134.8546905",
    "lat": "34.83130663",
    "名称": "志方の城山",
    "読み仮名": "しかたのしろやま",
    "所在地": "志方町広尾",
    "問合せ": null
  }
]
